name,lat,lon,type,travel_time
Cardington Studios,52.10857,-0.422055,Batman Location,6.8
Glasgow Necropolis,55.862671,-4.23118,Batman Location,7.1
Liver Building,53.405823,-2.995956,Batman Location,6.5
Ferrari Maranello,44.5326,10.8641,Supercar Factory,7.0
McLaren Woking,51.3166,-0.56,Supercar Factory,6.7
Pagani Modena,44.589,10.7856,Supercar Factory,7.2
